[{"pk": 8, "model": "ambulances.ambulancedriver", "fields": {"phonenumber": "+250788775537 ", "name": "MUNYANEZA ERNESTE ", "identity": "1198080098279000 ", "location": 16360}}, {"pk": 9, "model": "ambulances.ambulancedriver", "fields": {"phonenumber": "+250788869778 ", "name": "BIZAMENYIMANA VALENS ", "identity": "1197580059935034 ", "location": 16360}}, {"pk": 10, "model": "ambulances.ambulancedriver", "fields": {"phonenumber": "+250788472485 ", "name": "HABIMANA ILDEPHONSE ", "identity": "1197780063734010 ", "location": 16365}}, {"pk": 11, "model": "ambulances.ambulancedriver", "fields": {"phonenumber": "+250788775537 ", "name": "MUNYANEZA ERNESTE ", "identity": "1198080098279000 ", "location": 16361}}, {"pk": 12, "model": "ambulances.ambulancedriver", "fields": {"phonenumber": "+250788869778 ", "name": "BIZAMENYIMANA VALENS ", "identity": "1197580059935034 ", "location": 16361}}, {"pk": 13, "model": "ambulances.ambulancedriver", "fields": {"phonenumber": "+250788472485 ", "name": "HABIMANA ILDEPHONSE ", "identity": "1197780063734010 ", "location": 16367}}, {"pk": 14, "model": "ambulances.ambulancedriver", "fields": {"phonenumber": "+250788472485 ", "name": "HABIMANA ILDEPHONSE ", "identity": "1197780063734010 ", "location": 16363}}, {"pk": 15, "model": "ambulances.ambulancedriver", "fields": {"phonenumber": "+250788460359 ", "name": "NIBISHAKA JEROME ", "identity": "1198180092865047 ", "location": 16362}}, {"pk": 17, "model": "ambulances.ambulancedriver", "fields": {"phonenumber": "+250788655162 ", "name": "NIYITEGEKA JEAN CLAUDE ", "identity": "119850109516022 ", "location": 16362}}, {"pk": 18, "model": "ambulances.ambulancedriver", "fields": {"phonenumber": "+250788655162 ", "name": "NIYITEGEKA JEAN CLAUDE ", "identity": "119850109516022 ", "location": 16364}}, {"pk": 19, "model": "ambulances.ambulancedriver", "fields": {"phonenumber": "+250788655162 ", "name": "NIYITEGEKA JEAN CLAUDE ", "identity": "119850109516022 ", "location": 31447}}, {"pk": 20, "model": "ambulances.ambulancedriver", "fields": {"phonenumber": "+250788800511", "name": "Pivot test", "identity": "1111111111111111", "location": 16240}}, {"pk": 21, "model": "ambulances.ambulancedriver", "fields": {"phonenumber": "0783714335", "name": "Judith N", "identity": "12345678901234", "location": 15749}}, {"pk": 23, "model": "ambulances.ambulancedriver", "fields": {"phonenumber": "0788800511", "name": "St.Fiacre de Kgl", "identity": "1111111111111111", "location": 15749}}, {"pk": 26, "model": "ambulances.ambulancedriver", "fields": {"phonenumber": "+250788460359", "name": "NIBISHAKA JEROME", "identity": "1198180092865047", "location": 16188}}, {"pk": 27, "model": "ambulances.ambulancedriver", "fields": {"phonenumber": "+250788861918", "name": "TWAHIRWA VANANT HEMED", "identity": "1196880078220069", "location": 16188}}]